{"type":"FeatureCollection","features":[{"type":"Feature","properties":{"name":"Institut für Mathematische Logik"},"geometry":{"type":"Point","coordinates":[7.6032744,51.965925]}},{"type":"Feature","properties":{"name":"Institut für Mineralogie"},"geometry":{"type":"Point","coordinates":[7.596815,51.968266]}},{"type":"Feature","properties":{"name":"Institut für Geologie und Paläontologie"},"geometry":{"type":"Point","coordinates":[7.5968279,51.9680535]}},{"type":"Feature","properties":{"name":"Institut für Planetologie"},"geometry":{"type":"Point","coordinates":[7.5979709,51.9669865]}},{"type":"Feature","properties":{"name":"Institut für Geophysik"},"geometry":{"type":"Point","coordinates":[7.596832,51.9684329]}},{"type":"Feature","properties":{"name":"Institut für Kernphysik"},"geometry":{"type":"Point","coordinates":[7.5988636,51.9665516]}},{"type":"Feature","properties":{"name":"Institut für Theoretische Physik"},"geometry":{"type":"Point","coordinates":[7.5988482,51.9661313]}},{"type":"Feature","properties":{"name":"Institut für Informatik"},"geometry":{"type":"Point","coordinates":[7.6032947,51.966231]}},{"type":"Feature","properties":{"name":"Institut für Kanonisches Recht"},"geometry":{"type":"Point","coordinates":[7.6224918,51.9626117]}},{"type":"Feature","properties":{"name":"Mikrobiologie"},"geometry":{"type":"Point","coordinates":[7.5975691,51.9658814]}},{"type":"Feature","properties":{"name":"Institut für Anatomie"},"geometry":{"type":"Point","coordinates":[7.6056845,51.9573737]}},{"type":"Feature","properties":{"name":"Institut für Organisationsökonomik"},"geometry":{"type":"Point","coordinates":[7.6080194,51.9506397]}},{"type":"Feature","properties":{"name":"Institut für Neutestamentliche Textforschung"},"geometry":{"type":"Point","coordinates":[7.6235026,51.9612592]}},{"type":"Feature","properties":{"name":"Institut für Geographie"},"geometry":{"type":"Point","coordinates":[7.5957584,51.9694005]}},{"type":"Feature","properties":{"name":"Universitätsausschuss für Kunst und Kultur"},"geometry":{"type":"Point","coordinates":[7.6070744,51.9595142]}},{"type":"Feature","properties":{"name":"Institut für klassische Philologie"},"geometry":{"type":"Point","coordinates":[7.6227547,51.9618997]}},{"type":"Feature","properties":{"name":"Institut für Kriminalwissenschaften"},"geometry":{"type":"Point","coordinates":[7.6209237,51.961]}},{"type":"Feature","properties":{"name":"Fachschaft für Theologie"},"geometry":{"type":"Point","coordinates":[7.619346,51.9612168]}},{"type":"Feature","properties":{"name":"Institut für Sinologie und Ostasienkunde"},"geometry":{"type":"Point","coordinates":[7.6232308,51.9649491]}},{"type":"Feature","properties":{"name":"Arbeitsstelle Feministische Theologie und Genderforschung"},"geometry":{"type":"Point","coordinates":[7.6081541,51.9606602]}},{"type":"Feature","properties":{"name":"Institut für vergleichende Städtegeschichte"},"geometry":{"type":"Point","coordinates":[7.6257323,51.9585454]}},{"type":"Feature","properties":{"name":"Institut für Finanzwissenschaften I /II"},"geometry":{"type":"Point","coordinates":[7.6185793,51.9622397]}},{"type":"Feature","properties":{"name":"Institut für Siedlungs- und Wohnungswesen"},"geometry":{"type":"Point","coordinates":[7.6180525,51.9612143]}},{"type":"Feature","properties":{"name":"Institut für Internationale Ökonomie"},"geometry":{"type":"Point","coordinates":[7.619995,51.9617492]}},{"type":"Feature","properties":{"name":"Institut für Kulturanthropologie/Europäische Ethnologie"},"geometry":{"type":"Point","coordinates":[7.6083002,51.9507277]}},{"type":"Feature","properties":{"name":"Institut für Technik und ihre Didaktik"},"geometry":{"type":"Point","coordinates":[7.5987954,51.9671127]}},{"type":"Feature","properties":{"name":"Institut für ökumenische Theologie"},"geometry":{"type":"Point","coordinates":[7.6219048,51.9613531]}},{"type":"Feature","properties":{"name":"Institut für Indogermanische Sprachwissenschaften"},"geometry":{"type":"Point","coordinates":[7.6233141,51.9647832]}},{"type":"Feature","properties":{"name":"Institut der Didaktik der Mathematik und der Informatik"},"geometry":{"type":"Point","coordinates":[7.5973963,51.9695308]}},{"type":"Feature","properties":{"name":"Asta Sportreferat"},"geometry":{"type":"Point","coordinates":[7.6033676,51.9734524]}},{"type":"Feature","properties":{"name":"Institut für Medizinische Informatik"},"geometry":{"type":"Point","coordinates":[7.5987979,51.9607498]}},{"type":"Feature","properties":{"name":"Institut für molekulare Tumorbiologie"},"geometry":{"type":"Point","coordinates":[7.6061265,51.9585502]}},{"type":"Feature","properties":{"name":"Institut für Kommunikationswissenschaft"},"geometry":{"type":"Point","coordinates":[7.6194686,51.9603265]}},{"type":"Feature","properties":{"name":"Institut für Bioinformatik"},"geometry":{"type":"Point","coordinates":[7.6000686,51.9565629]}},{"type":"Feature","properties":{"name":"Institut für Wirtschaftsinformatik"},"geometry":{"type":"Point","coordinates":[7.6032107,51.9732611]}},{"type":"Feature","properties":{"name":"Münster School of Design"},"geometry":{"type":"Point","coordinates":[7.6011072,51.9754701]}},{"type":"Feature","properties":{"name":"Institut für Evolution und Biodiversität"},"geometry":{"type":"Point","coordinates":[7.6140307,51.9617508]}},{"type":"Feature","properties":{"name":"Mathematics Münster Cluster of Excellence"},"geometry":{"type":"Point","coordinates":[7.6034014,51.9664338]}},{"type":"Feature","properties":{"name":"MM Conference Centre"},"geometry":{"type":"Point","coordinates":[7.6030049,51.9665998]}},{"type":"Feature","properties":{"name":"Applied Mathematics Münster"},"geometry":{"type":"Point","coordinates":[7.6035689,51.9664324]}}]}